{
  "type": "FeatureCollection",
  "features": [
    {
      "type": "Feature",
      "properties": {
        "名称": "三居时光",
        "下载速度": "144.49 Mbps",
        "Speedtest 链接": "https://www.speedtest.net/result/c/f6a6b9e3-5c4c-4875-8199-424a17af4e2c",
        "参考价格": "拿铁26元",
        "评论 (@lhysdl)": "家附近的咖啡馆，旁边的面馆很好吃^_^",
        "marker-color": "#50C240",
        "marker-symbol": "cafe"
      },
      "geometry": {
        "type": "Point",
        "coordinates": [
          112.9953,
          28.1289
        ]
      }
    },
    {
      "type": "Feature",
      "properties": {
        "名称": "太平阳咖啡（中建广场店）",
        "下载速度": "247 Mbps",
        "Speedtest 链接": "https://www.speedtest.net/my-result/a/6448021572",
        "参考价格": "红宝石烤奶风味拿铁35元",
        "评论 (@lhysdl)": "价格较贵，东西一般，还不能给停车券",
        "marker-color": "#50C240",
        "marker-symbol": "cafe"
      },
      "geometry": {
        "type": "Point",
        "coordinates": [
          113.0019,
          28.1222
        ]
      }
    },
    {
      "type": "Feature",
      "properties": {
        "名称": "enjoy悦想家",
        "下载速度": "94.1 Mbps",
        "Speedtest 链接": "https://www.speedtest.net/my-result/d/292290440",
        "参考价格": "dirty28元",
        "评论 (@lhysdl)": "家附近的咖啡馆，林业科技大学后门口，网速环境都不错",
        "marker-color": "#50C240",
        "marker-symbol": "cafe"
      },
      "geometry": {
        "type": "Point",
        "coordinates": [
          112.984815,
          28.130511
        ]
      }
    },
    {
      "type": "Feature",
      "properties": {
        "名称": "别有coffee",
        "下载速度": "32.76 Mbps",
        "Speedtest 链接": "https://www.speedtest.net/result/11983062565",
        "参考价格": "拿铁28",
        "评论 (@lhysdl)": "一个小坡上去，左手边一个独栋小房子，对面是废弃的老楼。只供应饮料没有食物。",
        "marker-color": "#50C240",
        "marker-symbol": "cafe"
      },
      "geometry": {
        "type": "Point",
        "coordinates": [
          113.000242,
          28.125248
        ]
      }
    },
    {
      "type": "Feature",
      "properties": {
        "名称": "home coffee",
        "下载速度": "68.51 Mbps",
        "Speedtest 链接": "https://www.speedtest.net/result/12057437406",
        "参考价格": "latte 10",
        "评论 (@lhysdl)": "homemade coffee",
        "marker-color": "#50C240",
        "marker-symbol": "cafe"
      },
      "geometry": {
        "type": "Point",
        "coordinates": [
          112.988973,
          28.130002
        ]
      }
    },
    {
      "type": "Feature",
      "properties": {
        "名称": "Tims Hortons",
        "下载速度": "2.90 Mbps",
        "Speedtest 链接": "https://www.speedtest.net/result/12654027701",
        "参考价格": "中杯拿铁24，鸡肉贝果20，火腿可颂12",
        "评论 (@lhysdl)": "贝果不错，咖啡一般",
        "marker-color": "#C24740",
        "marker-symbol": "cafe"
      },
      "geometry": {
        "type": "Point",
        "coordinates": [
          113.011457,
          28.113958
        ]
      }
    },
    {
      "type": "Feature",
      "properties": {
        "名称": "LAVAZZA",
        "下载速度": "2.69 Mbps",
        "Speedtest 链接": "https://www.speedtest.net/result/12665307093",
        "参考价格": "浓郁拿铁中杯32",
        "评论 (@lhysdl)": "浓郁拿铁标准杯是三倍浓缩，单凭kafa豆偏酸",
        "marker-color": "#C24740",
        "marker-symbol": "cafe"
      },
      "geometry": {
        "type": "Point",
        "coordinates": [
          113.009451,
          28.115905
        ]
      }
    }
  ]
}
