{
  "type": "FeatureCollection",
  "features": [
    {
      "type": "Feature",
      "properties": {
        "名称": "猫的天空之城（新天地店）",
        "下载速度": "2.2 Mbps",
        "Speedtest 链接": "http://www.speedtest.net/my-result/4638301580",
        "参考价格": "25-30 元",
        "热拿铁": "28元",
        "评论 (@xhacker)": "共享新天地的免费 Wi-Fi，极慢。网速用 XTDStyle_free 测量。丝袜奶茶还不错。",
        "marker-color": "#C24740"
      },
      "geometry": {
        "type": "Point",
        "coordinates": [
          121.47,
          31.22
        ]
      }
    },
    {
      "type": "Feature",
      "properties": {
        "名称": "星巴克（800秀店）",
        "下载速度": "2.95 Mbps",
        "Speedtest 链接": "http://www.speedtest.net/my-result/4643633193",
        "大杯香草拿铁": "33元",
        "评论 (@aquarhead)": "其实就在我司楼下, 速度还可以(虽然远远比不上我司就是了www)",
        "marker-color": "#C24740"
      },
      "geometry": {
        "type": "Point",
        "coordinates": [
          121.43936,
          31.23570
        ]
      }
    },
    {
      "type": "Feature",
      "properties": {
        "名称": "delimuses",
        "下载速度": "3.75 Mbps",
        "Speedtest 链接": "http://www.speedtest.net/my-result/4652272975",
        "参考价格": "50-70元",
        "评论 (@aquarhead)": "也在我司附近, 一般人不会太多所以网速蛮不错的, 有吃有喝只是价格略贵上菜也比较慢",
        "marker-color": "#C24740"
      },
      "geometry": {
        "type": "Point",
        "coordinates": [
          121.43645,
          31.23558
        ]
      }
    },
    {
      "type": "Feature",
      "properties": {
        "名称": "Starbucks (CITIC Square)",
        "下载速度": "1.00 Mbps",
        "Speedtest 链接": "http://www.speedtest.net/my-result/4657045711",
        "评论 (@aquarhead)": "地方蛮大的, 有一张长方桌所以感觉挺不错的",
        "marker-color": "#C24740"
      },
      "geometry": {
        "type": "Point",
        "coordinates": [
          121.45072,
          31.22968
        ]
      }
    },
    {
      "type": "Feature",
      "properties": {
        "名称": "Wine Connection",
        "下载速度": "3.61 Mbps",
        "小杯拿铁": "30 元",
        "Speedtest 链接": "http://www.speedtest.net/my-result/4659526554",
        "评论 (@aquarhead)": "价位合理, 有早午餐正餐酒水齐全, 就在路边上但并不太吵",
        "marker-color": "#C24740"
      },
      "geometry": {
        "type": "Point",
        "coordinates": [
          121.43556,
          31.22401
        ]
      }
    },
    {
      "type": "Feature",
      "properties": {
        "名称": "Meo's Coffee",
        "下载速度": "16.00 Mbps",
        "大杯拿铁": "31 元",
        "Speedtest 链接": "http://www.speedtest.net/my-result/4659481377",
        "评论 (@ryaneof)": "地理位置很好，顾客很少，比较安静，网速也不错。"
      },
      "geometry": {
        "type": "Point",
        "coordinates": [
          121.5057491,
          31.2352515
        ]
      }
    }
  ]
}
